[
  {
    "nombre": "Hermandad Matriz de Almonte",
    "numeroOrden": 1,
    "provincia": "Huelva",
    "localidad": "Almonte",
    "madrina": null,
    "anioFundacion": 1758,
    "categoria": "FILIAL",
    "latitud": 37.2635,
    "longitud": -6.5115,
    "web": "https://www.hermandadmatriz.es"
  },
  {
    "nombre": "Hermandad de Sanlúcar de Barrameda",
    "numeroOrden": 2,
    "provincia": "Cádiz",
    "localidad": "Sanlúcar de Barrameda",
    "madrina": "Almonte (Matriz)",
    "anioFundacion": 1735,
    "categoria": "FILIAL",
    "latitud": 36.7784,
    "longitud": -6.3532,
    "web": null
  },
  {
    "nombre": "Hermandad de Huelva",
    "numeroOrden": 3,
    "provincia": "Huelva",
    "localidad": "Huelva",
    "madrina": "Almonte (Matriz)",
    "anioFundacion": 1861,
    "categoria": "FILIAL",
    "latitud": 37.2614,
    "longitud": -6.9447,
    "web": null
  },
  {
    "nombre": "Hermandad de Sevilla (La Macarena)",
    "numeroOrden": 4,
    "provincia": "Sevilla",
    "localidad": "Sevilla",
    "madrina": "Almonte (Matriz)",
    "anioFundacion": 1738,
    "categoria": "FILIAL",
    "latitud": 37.3987,
    "longitud": -5.9929,
    "web": null
  },
  {
    "nombre": "Hermandad de Triana",
    "numeroOrden": 5,
    "provincia": "Sevilla",
    "localidad": "Sevilla",
    "madrina": "Almonte (Matriz)",
    "anioFundacion": 1813,
    "categoria": "FILIAL",
    "latitud": 37.3826,
    "longitud": -6.0025,
    "web": null
  },
  {
    "nombre": "Hermandad de Moguer",
    "numeroOrden": 6,
    "provincia": "Huelva",
    "localidad": "Moguer",
    "madrina": "Almonte (Matriz)",
    "anioFundacion": 1880,
    "categoria": "FILIAL",
    "latitud": 37.2742,
    "longitud": -6.8381,
    "web": null
  },
  {
    "nombre": "Hermandad de Jerez de la Frontera",
    "numeroOrden": 7,
    "provincia": "Cádiz",
    "localidad": "Jerez de la Frontera",
    "madrina": "Almonte (Matriz)",
    "anioFundacion": 1850,
    "categoria": "FILIAL",
    "latitud": 36.6850,
    "longitud": -6.1261,
    "web": null
  },
  {
    "nombre": "Hermandad de Cádiz",
    "numeroOrden": 8,
    "provincia": "Cádiz",
    "localidad": "Cádiz",
    "madrina": "Almonte (Matriz)",
    "anioFundacion": 1868,
    "categoria": "FILIAL",
    "latitud": 36.5298,
    "longitud": -6.2924,
    "web": null
  },
  {
    "nombre": "Hermandad de Málaga",
    "numeroOrden": 9,
    "provincia": "Málaga",
    "localidad": "Málaga",
    "madrina": "Almonte (Matriz)",
    "anioFundacion": 1942,
    "categoria": "FILIAL",
    "latitud": 36.7213,
    "longitud": -4.4214,
    "web": null
  },
  {
    "nombre": "Hermandad de Córdoba",
    "numeroOrden": 10,
    "provincia": "Córdoba",
    "localidad": "Córdoba",
    "madrina": "Almonte (Matriz)",
    "anioFundacion": 1962,
    "categoria": "FILIAL",
    "latitud": 37.8882,
    "longitud": -4.7794,
    "web": null
  },
  {
    "nombre": "Hermandad de Palos de la Frontera",
    "numeroOrden": 11,
    "provincia": "Huelva",
    "localidad": "Palos de la Frontera",
    "madrina": "Almonte (Matriz)",
    "anioFundacion": 1923,
    "categoria": "FILIAL",
    "latitud": 37.2318,
    "longitud": -6.8994,
    "web": null
  },
  {
    "nombre": "Hermandad de La Palma del Condado",
    "numeroOrden": 12,
    "provincia": "Huelva",
    "localidad": "La Palma del Condado",
    "madrina": "Almonte (Matriz)",
    "anioFundacion": 1929,
    "categoria": "FILIAL",
    "latitud": 37.3897,
    "longitud": -6.5516,
    "web": null
  },
  {
    "nombre": "Hermandad de Ayamonte",
    "numeroOrden": 13,
    "provincia": "Huelva",
    "localidad": "Ayamonte",
    "madrina": "Almonte (Matriz)",
    "anioFundacion": 1932,
    "categoria": "FILIAL",
    "latitud": 37.2112,
    "longitud": -7.4048,
    "web": null
  },
  {
    "nombre": "Hermandad de Lepe",
    "numeroOrden": 14,
    "provincia": "Huelva",
    "localidad": "Lepe",
    "madrina": "Almonte (Matriz)",
    "anioFundacion": 1935,
    "categoria": "FILIAL",
    "latitud": 37.2559,
    "longitud": -7.2054,
    "web": null
  },
  {
    "nombre": "Hermandad de Bollullos Par del Condado",
    "numeroOrden": 15,
    "provincia": "Huelva",
    "localidad": "Bollullos Par del Condado",
    "madrina": "Almonte (Matriz)",
    "anioFundacion": 1937,
    "categoria": "FILIAL",
    "latitud": 37.3351,
    "longitud": -6.5286,
    "web": null
  },
  {
    "nombre": "Hermandad de El Puerto de Santa María",
    "numeroOrden": 16,
    "provincia": "Cádiz",
    "localidad": "El Puerto de Santa María",
    "madrina": "Almonte (Matriz)",
    "anioFundacion": 1939,
    "categoria": "FILIAL",
    "latitud": 36.5963,
    "longitud": -6.2302,
    "web": null
  },
  {
    "nombre": "Hermandad de Valverde del Camino",
    "numeroOrden": 17,
    "provincia": "Huelva",
    "localidad": "Valverde del Camino",
    "madrina": "Almonte (Matriz)",
    "anioFundacion": 1940,
    "categoria": "FILIAL",
    "latitud": 37.5774,
    "longitud": -6.7536,
    "web": null
  },
  {
    "nombre": "Hermandad de Granada",
    "numeroOrden": 18,
    "provincia": "Granada",
    "localidad": "Granada",
    "madrina": "Almonte (Matriz)",
    "anioFundacion": 1941,
    "categoria": "FILIAL",
    "latitud": 37.1773,
    "longitud": -3.5986,
    "web": null
  },
  {
    "nombre": "Hermandad de Salteras",
    "numeroOrden": 19,
    "provincia": "Sevilla",
    "localidad": "Salteras",
    "madrina": "Almonte (Matriz)",
    "anioFundacion": 1942,
    "categoria": "FILIAL",
    "latitud": 37.4584,
    "longitud": -6.1308,
    "web": null
  },
  {
    "nombre": "Hermandad de Isla Cristina",
    "numeroOrden": 20,
    "provincia": "Huelva",
    "localidad": "Isla Cristina",
    "madrina": "Almonte (Matriz)",
    "anioFundacion": 1943,
    "categoria": "FILIAL",
    "latitud": 37.2009,
    "longitud": -7.3226,
    "web": null
  },
  {
    "nombre": "Hermandad de Nerva",
    "numeroOrden": 21,
    "provincia": "Huelva",
    "localidad": "Nerva",
    "madrina": "Almonte (Matriz)",
    "anioFundacion": 1944,
    "categoria": "FILIAL",
    "latitud": 37.6892,
    "longitud": -6.5545,
    "web": null
  },
  {
    "nombre": "Hermandad de Madrid",
    "numeroOrden": 22,
    "provincia": "Madrid",
    "localidad": "Madrid",
    "madrina": "Almonte (Matriz)",
    "anioFundacion": 1945,
    "categoria": "FILIAL",
    "latitud": 40.4168,
    "longitud": -3.7038,
    "web": null
  },
  {
    "nombre": "Hermandad de Pilas",
    "numeroOrden": 23,
    "provincia": "Sevilla",
    "localidad": "Pilas",
    "madrina": "Almonte (Matriz)",
    "anioFundacion": 1946,
    "categoria": "FILIAL",
    "latitud": 37.2966,
    "longitud": -6.3019,
    "web": null
  },
  {
    "nombre": "Hermandad de Aracena",
    "numeroOrden": 24,
    "provincia": "Huelva",
    "localidad": "Aracena",
    "madrina": "Almonte (Matriz)",
    "anioFundacion": 1946,
    "categoria": "FILIAL",
    "latitud": 37.8929,
    "longitud": -6.5516,
    "web": null
  },
  {
    "nombre": "Hermandad de Villamanrique de la Condesa",
    "numeroOrden": 25,
    "provincia": "Sevilla",
    "localidad": "Villamanrique de la Condesa",
    "madrina": "Almonte (Matriz)",
    "anioFundacion": 1946,
    "categoria": "FILIAL",
    "latitud": 37.2500,
    "longitud": -6.3167,
    "web": null
  },
  {
    "nombre": "Hermandad de San Fernando",
    "numeroOrden": 26,
    "provincia": "Cádiz",
    "localidad": "San Fernando",
    "madrina": "Almonte (Matriz)",
    "anioFundacion": 1947,
    "categoria": "FILIAL",
    "latitud": 36.4762,
    "longitud": -6.2034,
    "web": null
  },
  {
    "nombre": "Hermandad de Aznalcázar",
    "numeroOrden": 27,
    "provincia": "Sevilla",
    "localidad": "Aznalcázar",
    "madrina": "Almonte (Matriz)",
    "anioFundacion": 1947,
    "categoria": "FILIAL",
    "latitud": 37.2633,
    "longitud": -6.2618,
    "web": null
  },
  {
    "nombre": "Hermandad de Trigueros",
    "numeroOrden": 28,
    "provincia": "Huelva",
    "localidad": "Trigueros",
    "madrina": "Almonte (Matriz)",
    "anioFundacion": 1948,
    "categoria": "FILIAL",
    "latitud": 37.3841,
    "longitud": -6.8230,
    "web": null
  },
  {
    "nombre": "Hermandad de Bonares",
    "numeroOrden": 29,
    "provincia": "Huelva",
    "localidad": "Bonares",
    "madrina": "Almonte (Matriz)",
    "anioFundacion": 1948,
    "categoria": "FILIAL",
    "latitud": 37.3083,
    "longitud": -6.6717,
    "web": null
  },
  {
    "nombre": "Hermandad de Dos Hermanas",
    "numeroOrden": 30,
    "provincia": "Sevilla",
    "localidad": "Dos Hermanas",
    "madrina": "Almonte (Matriz)",
    "anioFundacion": 1948,
    "categoria": "FILIAL",
    "latitud": 37.2836,
    "longitud": -5.9224,
    "web": null
  },
  {
    "nombre": "Hermandad de Benacazón",
    "numeroOrden": 31,
    "provincia": "Sevilla",
    "localidad": "Benacazón",
    "madrina": "Almonte (Matriz)",
    "anioFundacion": 1949,
    "categoria": "FILIAL",
    "latitud": 37.3437,
    "longitud": -6.2193,
    "web": null
  },
  {
    "nombre": "Hermandad de Niebla",
    "numeroOrden": 32,
    "provincia": "Huelva",
    "localidad": "Niebla",
    "madrina": "Almonte (Matriz)",
    "anioFundacion": 1950,
    "categoria": "FILIAL",
    "latitud": 37.3614,
    "longitud": -6.6764,
    "web": null
  },
  {
    "nombre": "Hermandad de Beas",
    "numeroOrden": 33,
    "provincia": "Huelva",
    "localidad": "Beas",
    "madrina": "Almonte (Matriz)",
    "anioFundacion": 1950,
    "categoria": "FILIAL",
    "latitud": 37.3847,
    "longitud": -6.9221,
    "web": null
  },
  {
    "nombre": "Hermandad de Lucena del Puerto",
    "numeroOrden": 34,
    "provincia": "Huelva",
    "localidad": "Lucena del Puerto",
    "madrina": "Almonte (Matriz)",
    "anioFundacion": 1951,
    "categoria": "FILIAL",
    "latitud": 37.2890,
    "longitud": -6.6513,
    "web": null
  },
  {
    "nombre": "Hermandad de Utrera",
    "numeroOrden": 35,
    "provincia": "Sevilla",
    "localidad": "Utrera",
    "madrina": "Almonte (Matriz)",
    "anioFundacion": 1951,
    "categoria": "FILIAL",
    "latitud": 37.1836,
    "longitud": -5.7822,
    "web": null
  },
  {
    "nombre": "Hermandad de San Juan del Puerto",
    "numeroOrden": 36,
    "provincia": "Huelva",
    "localidad": "San Juan del Puerto",
    "madrina": "Almonte (Matriz)",
    "anioFundacion": 1952,
    "categoria": "FILIAL",
    "latitud": 37.3178,
    "longitud": -6.8389,
    "web": null
  },
  {
    "nombre": "Hermandad de Chiclana de la Frontera",
    "numeroOrden": 37,
    "provincia": "Cádiz",
    "localidad": "Chiclana de la Frontera",
    "madrina": "Almonte (Matriz)",
    "anioFundacion": 1952,
    "categoria": "FILIAL",
    "latitud": 36.4191,
    "longitud": -6.1476,
    "web": null
  },
  {
    "nombre": "Hermandad de Aljaraque",
    "numeroOrden": 38,
    "provincia": "Huelva",
    "localidad": "Aljaraque",
    "madrina": "Almonte (Matriz)",
    "anioFundacion": 1953,
    "categoria": "FILIAL",
    "latitud": 37.2763,
    "longitud": -7.0097,
    "web": null
  },
  {
    "nombre": "Hermandad de Sanlúcar la Mayor",
    "numeroOrden": 39,
    "provincia": "Sevilla",
    "localidad": "Sanlúcar la Mayor",
    "madrina": "Almonte (Matriz)",
    "anioFundacion": 1953,
    "categoria": "FILIAL",
    "latitud": 37.3861,
    "longitud": -6.2044,
    "web": null
  },
  {
    "nombre": "Hermandad de Puerto Real",
    "numeroOrden": 40,
    "provincia": "Cádiz",
    "localidad": "Puerto Real",
    "madrina": "Almonte (Matriz)",
    "anioFundacion": 1953,
    "categoria": "FILIAL",
    "latitud": 36.5290,
    "longitud": -6.1897,
    "web": null
  },
  {
    "nombre": "Hermandad de Zalamea la Real",
    "numeroOrden": 41,
    "provincia": "Huelva",
    "localidad": "Zalamea la Real",
    "madrina": "Almonte (Matriz)",
    "anioFundacion": 1954,
    "categoria": "FILIAL",
    "latitud": 37.6877,
    "longitud": -6.6561,
    "web": null
  },
  {
    "nombre": "Hermandad de Sevilla (El Salvador)",
    "numeroOrden": 42,
    "provincia": "Sevilla",
    "localidad": "Sevilla",
    "madrina": "Almonte (Matriz)",
    "anioFundacion": 1954,
    "categoria": "FILIAL",
    "latitud": 37.3938,
    "longitud": -5.9930,
    "web": null
  },
  {
    "nombre": "Hermandad de Carmona",
    "numeroOrden": 43,
    "provincia": "Sevilla",
    "localidad": "Carmona",
    "madrina": "Almonte (Matriz)",
    "anioFundacion": 1955,
    "categoria": "FILIAL",
    "latitud": 37.4714,
    "longitud": -5.6422,
    "web": null
  },
  {
    "nombre": "Hermandad de Alcalá de Guadaíra",
    "numeroOrden": 44,
    "provincia": "Sevilla",
    "localidad": "Alcalá de Guadaíra",
    "madrina": "Almonte (Matriz)",
    "anioFundacion": 1955,
    "categoria": "FILIAL",
    "latitud": 37.3375,
    "longitud": -5.8443,
    "web": null
  },
  {
    "nombre": "Hermandad de Algeciras",
    "numeroOrden": 45,
    "provincia": "Cádiz",
    "localidad": "Algeciras",
    "madrina": "Almonte (Matriz)",
    "anioFundacion": 1956,
    "categoria": "FILIAL",
    "latitud": 36.1408,
    "longitud": -5.4530,
    "web": null
  },
  {
    "nombre": "Hermandad de Punta Umbría",
    "numeroOrden": 46,
    "provincia": "Huelva",
    "localidad": "Punta Umbría",
    "madrina": "Almonte (Matriz)",
    "anioFundacion": 1956,
    "categoria": "FILIAL",
    "latitud": 37.1729,
    "longitud": -7.0506,
    "web": null
  },
  {
    "nombre": "Hermandad de Umbrete",
    "numeroOrden": 47,
    "provincia": "Sevilla",
    "localidad": "Umbrete",
    "madrina": "Almonte (Matriz)",
    "anioFundacion": 1957,
    "categoria": "FILIAL",
    "latitud": 37.3691,
    "longitud": -6.1714,
    "web": null
  },
  {
    "nombre": "Hermandad de Villarrasa",
    "numeroOrden": 48,
    "provincia": "Huelva",
    "localidad": "Villarrasa",
    "madrina": "Almonte (Matriz)",
    "anioFundacion": 1957,
    "categoria": "FILIAL",
    "latitud": 37.3958,
    "longitud": -6.6281,
    "web": null
  },
  {
    "nombre": "Hermandad de Rociana del Condado",
    "numeroOrden": 49,
    "provincia": "Huelva",
    "localidad": "Rociana del Condado",
    "madrina": "Almonte (Matriz)",
    "anioFundacion": 1958,
    "categoria": "FILIAL",
    "latitud": 37.3271,
    "longitud": -6.6022,
    "web": null
  },
  {
    "nombre": "Hermandad de Rota",
    "numeroOrden": 50,
    "provincia": "Cádiz",
    "localidad": "Rota",
    "madrina": "Almonte (Matriz)",
    "anioFundacion": 1958,
    "categoria": "FILIAL",
    "latitud": 36.6229,
    "longitud": -6.3592,
    "web": null
  },
  {
    "nombre": "Hermandad de Minas de Riotinto",
    "numeroOrden": 51,
    "provincia": "Huelva",
    "localidad": "Minas de Riotinto",
    "madrina": "Almonte (Matriz)",
    "anioFundacion": 1958,
    "categoria": "FILIAL",
    "latitud": 37.6945,
    "longitud": -6.5793,
    "web": null
  },
  {
    "nombre": "Hermandad de Cartaya",
    "numeroOrden": 52,
    "provincia": "Huelva",
    "localidad": "Cartaya",
    "madrina": "Almonte (Matriz)",
    "anioFundacion": 1959,
    "categoria": "FILIAL",
    "latitud": 37.2773,
    "longitud": -7.1500,
    "web": null
  },
  {
    "nombre": "Hermandad de Gibraleón",
    "numeroOrden": 53,
    "provincia": "Huelva",
    "localidad": "Gibraleón",
    "madrina": "Almonte (Matriz)",
    "anioFundacion": 1959,
    "categoria": "FILIAL",
    "latitud": 37.3817,
    "longitud": -7.0278,
    "web": null
  },
  {
    "nombre": "Hermandad de Hinojos",
    "numeroOrden": 54,
    "provincia": "Huelva",
    "localidad": "Hinojos",
    "madrina": "Almonte (Matriz)",
    "anioFundacion": 1960,
    "categoria": "FILIAL",
    "latitud": 37.2789,
    "longitud": -6.3705,
    "web": null
  },
  {
    "nombre": "Hermandad de Manzanilla",
    "numeroOrden": 55,
    "provincia": "Huelva",
    "localidad": "Manzanilla",
    "madrina": "Almonte (Matriz)",
    "anioFundacion": 1960,
    "categoria": "FILIAL",
    "latitud": 37.3782,
    "longitud": -6.4154,
    "web": null
  },
  {
    "nombre": "Hermandad de La Línea de la Concepción",
    "numeroOrden": 56,
    "provincia": "Cádiz",
    "localidad": "La Línea de la Concepción",
    "madrina": "Almonte (Matriz)",
    "anioFundacion": 1960,
    "categoria": "FILIAL",
    "latitud": 36.1678,
    "longitud": -5.3492,
    "web": null
  },
  {
    "nombre": "Hermandad de Lebrija",
    "numeroOrden": 57,
    "provincia": "Sevilla",
    "localidad": "Lebrija",
    "madrina": "Almonte (Matriz)",
    "anioFundacion": 1961,
    "categoria": "FILIAL",
    "latitud": 36.9219,
    "longitud": -6.0742,
    "web": null
  },
  {
    "nombre": "Hermandad de Marchena",
    "numeroOrden": 58,
    "provincia": "Sevilla",
    "localidad": "Marchena",
    "madrina": "Almonte (Matriz)",
    "anioFundacion": 1961,
    "categoria": "FILIAL",
    "latitud": 37.3354,
    "longitud": -5.3866,
    "web": null
  },
  {
    "nombre": "Hermandad de Marbella",
    "numeroOrden": 59,
    "provincia": "Málaga",
    "localidad": "Marbella",
    "madrina": "Almonte (Matriz)",
    "anioFundacion": 1962,
    "categoria": "FILIAL",
    "latitud": 36.5101,
    "longitud": -4.8825,
    "web": null
  },
  {
    "nombre": "Hermandad de Barcelona",
    "numeroOrden": 60,
    "provincia": "Barcelona",
    "localidad": "Barcelona",
    "madrina": "Almonte (Matriz)",
    "anioFundacion": 1962,
    "categoria": "FILIAL",
    "latitud": 41.3851,
    "longitud": 2.1734,
    "web": null
  },
  {
    "nombre": "Hermandad de Chucena",
    "numeroOrden": 61,
    "provincia": "Huelva",
    "localidad": "Chucena",
    "madrina": "Almonte (Matriz)",
    "anioFundacion": 1963,
    "categoria": "FILIAL",
    "latitud": 37.3955,
    "longitud": -6.6958,
    "web": null
  },
  {
    "nombre": "Hermandad de Villalba del Alcor",
    "numeroOrden": 62,
    "provincia": "Huelva",
    "localidad": "Villalba del Alcor",
    "madrina": "Almonte (Matriz)",
    "anioFundacion": 1963,
    "categoria": "FILIAL",
    "latitud": 37.4236,
    "longitud": -6.5149,
    "web": null
  },
  {
    "nombre": "Hermandad de Escacena del Campo",
    "numeroOrden": 63,
    "provincia": "Huelva",
    "localidad": "Escacena del Campo",
    "madrina": "Almonte (Matriz)",
    "anioFundacion": 1964,
    "categoria": "FILIAL",
    "latitud": 37.4427,
    "longitud": -6.5879,
    "web": null
  },
  {
    "nombre": "Hermandad de Cortegana",
    "numeroOrden": 64,
    "provincia": "Huelva",
    "localidad": "Cortegana",
    "madrina": "Almonte (Matriz)",
    "anioFundacion": 1964,
    "categoria": "FILIAL",
    "latitud": 37.9017,
    "longitud": -6.8297,
    "web": null
  },
  {
    "nombre": "Hermandad de Morón de la Frontera",
    "numeroOrden": 65,
    "provincia": "Sevilla",
    "localidad": "Morón de la Frontera",
    "madrina": "Almonte (Matriz)",
    "anioFundacion": 1964,
    "categoria": "FILIAL",
    "latitud": 37.1262,
    "longitud": -5.4528,
    "web": null
  },
  {
    "nombre": "Hermandad de Tomares",
    "numeroOrden": 66,
    "provincia": "Sevilla",
    "localidad": "Tomares",
    "madrina": "Almonte (Matriz)",
    "anioFundacion": 1965,
    "categoria": "FILIAL",
    "latitud": 37.3666,
    "longitud": -6.0522,
    "web": null
  },
  {
    "nombre": "Hermandad de Calañas",
    "numeroOrden": 67,
    "provincia": "Huelva",
    "localidad": "Calañas",
    "madrina": "Almonte (Matriz)",
    "anioFundacion": 1965,
    "categoria": "FILIAL",
    "latitud": 37.6604,
    "longitud": -6.8873,
    "web": null
  },
  {
    "nombre": "Hermandad de Valencia",
    "numeroOrden": 68,
    "provincia": "Valencia",
    "localidad": "Valencia",
    "madrina": "Almonte (Matriz)",
    "anioFundacion": 1966,
    "categoria": "FILIAL",
    "latitud": 39.4699,
    "longitud": -0.3763,
    "web": null
  },
  {
    "nombre": "Hermandad de Arcos de la Frontera",
    "numeroOrden": 69,
    "provincia": "Cádiz",
    "localidad": "Arcos de la Frontera",
    "madrina": "Almonte (Matriz)",
    "anioFundacion": 1966,
    "categoria": "FILIAL",
    "latitud": 36.7480,
    "longitud": -5.8133,
    "web": null
  },
  {
    "nombre": "Hermandad de Antequera",
    "numeroOrden": 70,
    "provincia": "Málaga",
    "localidad": "Antequera",
    "madrina": "Almonte (Matriz)",
    "anioFundacion": 1967,
    "categoria": "FILIAL",
    "latitud": 37.0171,
    "longitud": -4.5596,
    "web": null
  },
  {
    "nombre": "Hermandad de Osuna",
    "numeroOrden": 71,
    "provincia": "Sevilla",
    "localidad": "Osuna",
    "madrina": "Almonte (Matriz)",
    "anioFundacion": 1967,
    "categoria": "FILIAL",
    "latitud": 37.2382,
    "longitud": -5.1030,
    "web": null
  },
  {
    "nombre": "Hermandad de Lora del Río",
    "numeroOrden": 72,
    "provincia": "Sevilla",
    "localidad": "Lora del Río",
    "madrina": "Almonte (Matriz)",
    "anioFundacion": 1967,
    "categoria": "FILIAL",
    "latitud": 37.6565,
    "longitud": -5.5163,
    "web": null
  },
  {
    "nombre": "Hermandad de Camas",
    "numeroOrden": 73,
    "provincia": "Sevilla",
    "localidad": "Camas",
    "madrina": "Almonte (Matriz)",
    "anioFundacion": 1968,
    "categoria": "FILIAL",
    "latitud": 37.3959,
    "longitud": -6.0326,
    "web": null
  },
  {
    "nombre": "Hermandad de Medina Sidonia",
    "numeroOrden": 74,
    "provincia": "Cádiz",
    "localidad": "Medina Sidonia",
    "madrina": "Almonte (Matriz)",
    "anioFundacion": 1968,
    "categoria": "FILIAL",
    "latitud": 36.4582,
    "longitud": -5.9227,
    "web": null
  },
  {
    "nombre": "Hermandad de Conil de la Frontera",
    "numeroOrden": 75,
    "provincia": "Cádiz",
    "localidad": "Conil de la Frontera",
    "madrina": "Almonte (Matriz)",
    "anioFundacion": 1969,
    "categoria": "FILIAL",
    "latitud": 36.2746,
    "longitud": -6.0876,
    "web": null
  },
  {
    "nombre": "Hermandad de Las Cabezas de San Juan",
    "numeroOrden": 76,
    "provincia": "Sevilla",
    "localidad": "Las Cabezas de San Juan",
    "madrina": "Almonte (Matriz)",
    "anioFundacion": 1969,
    "categoria": "FILIAL",
    "latitud": 36.9856,
    "longitud": -5.9384,
    "web": null
  },
  {
    "nombre": "Hermandad de Mairena del Aljarafe",
    "numeroOrden": 77,
    "provincia": "Sevilla",
    "localidad": "Mairena del Aljarafe",
    "madrina": "Almonte (Matriz)",
    "anioFundacion": 1969,
    "categoria": "FILIAL",
    "latitud": 37.3438,
    "longitud": -6.0619,
    "web": null
  },
  {
    "nombre": "Hermandad de Alosno",
    "numeroOrden": 78,
    "provincia": "Huelva",
    "localidad": "Alosno",
    "madrina": "Almonte (Matriz)",
    "anioFundacion": 1970,
    "categoria": "FILIAL",
    "latitud": 37.5560,
    "longitud": -7.1239,
    "web": null
  },
  {
    "nombre": "Hermandad de Puebla de Guzmán",
    "numeroOrden": 79,
    "provincia": "Huelva",
    "localidad": "Puebla de Guzmán",
    "madrina": "Almonte (Matriz)",
    "anioFundacion": 1970,
    "categoria": "FILIAL",
    "latitud": 37.5699,
    "longitud": -7.2519,
    "web": null
  },
  {
    "nombre": "Hermandad de Lucena (Córdoba)",
    "numeroOrden": 80,
    "provincia": "Córdoba",
    "localidad": "Lucena",
    "madrina": "Almonte (Matriz)",
    "anioFundacion": 1970,
    "categoria": "FILIAL",
    "latitud": 37.4091,
    "longitud": -4.4843,
    "web": null
  },
  {
    "nombre": "Hermandad de Almería",
    "numeroOrden": 81,
    "provincia": "Almería",
    "localidad": "Almería",
    "madrina": "Almonte (Matriz)",
    "anioFundacion": 1971,
    "categoria": "FILIAL",
    "latitud": 36.8381,
    "longitud": -2.4597,
    "web": null
  },
  {
    "nombre": "Hermandad de Fuengirola",
    "numeroOrden": 82,
    "provincia": "Málaga",
    "localidad": "Fuengirola",
    "madrina": "Almonte (Matriz)",
    "anioFundacion": 1971,
    "categoria": "FILIAL",
    "latitud": 36.5400,
    "longitud": -4.6248,
    "web": null
  },
  {
    "nombre": "Hermandad de Sevilla (Los Gitanos)",
    "numeroOrden": 83,
    "provincia": "Sevilla",
    "localidad": "Sevilla",
    "madrina": "Almonte (Matriz)",
    "anioFundacion": 1971,
    "categoria": "FILIAL",
    "latitud": 37.3876,
    "longitud": -5.9953,
    "web": null
  },
  {
    "nombre": "Hermandad de Bormujos",
    "numeroOrden": 84,
    "provincia": "Sevilla",
    "localidad": "Bormujos",
    "madrina": "Almonte (Matriz)",
    "anioFundacion": 1972,
    "categoria": "FILIAL",
    "latitud": 37.3577,
    "longitud": -6.0906,
    "web": null
  },
  {
    "nombre": "Hermandad de Écija",
    "numeroOrden": 85,
    "provincia": "Sevilla",
    "localidad": "Écija",
    "madrina": "Almonte (Matriz)",
    "anioFundacion": 1972,
    "categoria": "FILIAL",
    "latitud": 37.5416,
    "longitud": -5.0823,
    "web": null
  },
  {
    "nombre": "Hermandad de Tarifa",
    "numeroOrden": 86,
    "provincia": "Cádiz",
    "localidad": "Tarifa",
    "madrina": "Almonte (Matriz)",
    "anioFundacion": 1972,
    "categoria": "FILIAL",
    "latitud": 36.0136,
    "longitud": -5.6012,
    "web": null
  },
  {
    "nombre": "Hermandad de Motril",
    "numeroOrden": 87,
    "provincia": "Granada",
    "localidad": "Motril",
    "madrina": "Almonte (Matriz)",
    "anioFundacion": 1973,
    "categoria": "FILIAL",
    "latitud": 36.7454,
    "longitud": -3.5193,
    "web": null
  },
  {
    "nombre": "Hermandad de Zaragoza",
    "numeroOrden": 88,
    "provincia": "Zaragoza",
    "localidad": "Zaragoza",
    "madrina": "Almonte (Matriz)",
    "anioFundacion": 1973,
    "categoria": "FILIAL",
    "latitud": 41.6488,
    "longitud": -0.8891,
    "web": null
  },
  {
    "nombre": "Hermandad de Barbate",
    "numeroOrden": 89,
    "provincia": "Cádiz",
    "localidad": "Barbate",
    "madrina": "Almonte (Matriz)",
    "anioFundacion": 1973,
    "categoria": "FILIAL",
    "latitud": 36.1920,
    "longitud": -5.9232,
    "web": null
  },
  {
    "nombre": "Hermandad de San Juan de Aznalfarache",
    "numeroOrden": 90,
    "provincia": "Sevilla",
    "localidad": "San Juan de Aznalfarache",
    "madrina": "Almonte (Matriz)",
    "anioFundacion": 1974,
    "categoria": "FILIAL",
    "latitud": 37.3612,
    "longitud": -6.0166,
    "web": null
  },
  {
    "nombre": "Hermandad de Gelves",
    "numeroOrden": 91,
    "provincia": "Sevilla",
    "localidad": "Gelves",
    "madrina": "Almonte (Matriz)",
    "anioFundacion": 1974,
    "categoria": "FILIAL",
    "latitud": 37.3358,
    "longitud": -6.0247,
    "web": null
  },
  {
    "nombre": "Hermandad de Ronda",
    "numeroOrden": 92,
    "provincia": "Málaga",
    "localidad": "Ronda",
    "madrina": "Almonte (Matriz)",
    "anioFundacion": 1975,
    "categoria": "FILIAL",
    "latitud": 36.7461,
    "longitud": -5.1615,
    "web": null
  },
  {
    "nombre": "Hermandad de Murcia",
    "numeroOrden": 93,
    "provincia": "Murcia",
    "localidad": "Murcia",
    "madrina": "Almonte (Matriz)",
    "anioFundacion": 1975,
    "categoria": "FILIAL",
    "latitud": 37.9922,
    "longitud": -1.1307,
    "web": null
  },
  {
    "nombre": "Hermandad de Castilleja de la Cuesta",
    "numeroOrden": 94,
    "provincia": "Sevilla",
    "localidad": "Castilleja de la Cuesta",
    "madrina": "Almonte (Matriz)",
    "anioFundacion": 1975,
    "categoria": "FILIAL",
    "latitud": 37.3794,
    "longitud": -6.0470,
    "web": null
  },
  {
    "nombre": "Hermandad de Jaén",
    "numeroOrden": 95,
    "provincia": "Jaén",
    "localidad": "Jaén",
    "madrina": "Almonte (Matriz)",
    "anioFundacion": 1976,
    "categoria": "FILIAL",
    "latitud": 37.7796,
    "longitud": -3.7849,
    "web": null
  },
  {
    "nombre": "Hermandad de Vélez-Málaga",
    "numeroOrden": 96,
    "provincia": "Málaga",
    "localidad": "Vélez-Málaga",
    "madrina": "Almonte (Matriz)",
    "anioFundacion": 1976,
    "categoria": "FILIAL",
    "latitud": 36.7786,
    "longitud": -4.0998,
    "web": null
  },
  {
    "nombre": "Hermandad de Badajoz",
    "numeroOrden": 97,
    "provincia": "Badajoz",
    "localidad": "Badajoz",
    "madrina": "Almonte (Matriz)",
    "anioFundacion": 1977,
    "categoria": "FILIAL",
    "latitud": 38.8794,
    "longitud": -6.9706,
    "web": null
  },
  {
    "nombre": "Hermandad de Alicante",
    "numeroOrden": 98,
    "provincia": "Alicante",
    "localidad": "Alicante",
    "madrina": "Almonte (Matriz)",
    "anioFundacion": 1977,
    "categoria": "FILIAL",
    "latitud": 38.3452,
    "longitud": -0.4810,
    "web": null
  },
  {
    "nombre": "Hermandad de Cabra",
    "numeroOrden": 99,
    "provincia": "Córdoba",
    "localidad": "Cabra",
    "madrina": "Almonte (Matriz)",
    "anioFundacion": 1978,
    "categoria": "FILIAL",
    "latitud": 37.4716,
    "longitud": -4.4446,
    "web": null
  },
  {
    "nombre": "Hermandad de Estepona",
    "numeroOrden": 100,
    "provincia": "Málaga",
    "localidad": "Estepona",
    "madrina": "Almonte (Matriz)",
    "anioFundacion": 1978,
    "categoria": "FILIAL",
    "latitud": 36.4274,
    "longitud": -5.1478,
    "web": null
  },
  {
    "nombre": "Hermandad de Mérida",
    "numeroOrden": 101,
    "provincia": "Badajoz",
    "localidad": "Mérida",
    "madrina": "Almonte (Matriz)",
    "anioFundacion": 1979,
    "categoria": "FILIAL",
    "latitud": 38.9159,
    "longitud": -6.3438,
    "web": null
  },
  {
    "nombre": "Hermandad de Montilla",
    "numeroOrden": 102,
    "provincia": "Córdoba",
    "localidad": "Montilla",
    "madrina": "Almonte (Matriz)",
    "anioFundacion": 1979,
    "categoria": "FILIAL",
    "latitud": 37.5854,
    "longitud": -4.6379,
    "web": null
  },
  {
    "nombre": "Hermandad de Valladolid",
    "numeroOrden": 103,
    "provincia": "Valladolid",
    "localidad": "Valladolid",
    "madrina": "Almonte (Matriz)",
    "anioFundacion": 1980,
    "categoria": "FILIAL",
    "latitud": 41.6523,
    "longitud": -4.7245,
    "web": null
  },
  {
    "nombre": "Hermandad de Benalmádena",
    "numeroOrden": 104,
    "provincia": "Málaga",
    "localidad": "Benalmádena",
    "madrina": "Almonte (Matriz)",
    "anioFundacion": 1980,
    "categoria": "FILIAL",
    "latitud": 36.5979,
    "longitud": -4.5149,
    "web": null
  },
  {
    "nombre": "Hermandad de Palma de Mallorca",
    "numeroOrden": 105,
    "provincia": "Illes Balears",
    "localidad": "Palma de Mallorca",
    "madrina": "Almonte (Matriz)",
    "anioFundacion": 1981,
    "categoria": "FILIAL",
    "latitud": 39.5696,
    "longitud": 2.6502,
    "web": null
  },
  {
    "nombre": "Hermandad de Priego de Córdoba",
    "numeroOrden": 106,
    "provincia": "Córdoba",
    "localidad": "Priego de Córdoba",
    "madrina": "Almonte (Matriz)",
    "anioFundacion": 1981,
    "categoria": "FILIAL",
    "latitud": 37.4395,
    "longitud": -4.1952,
    "web": null
  },
  {
    "nombre": "Hermandad de Úbeda",
    "numeroOrden": 107,
    "provincia": "Jaén",
    "localidad": "Úbeda",
    "madrina": "Almonte (Matriz)",
    "anioFundacion": 1982,
    "categoria": "FILIAL",
    "latitud": 38.0116,
    "longitud": -3.3706,
    "web": null
  },
  {
    "nombre": "Hermandad de Toledo",
    "numeroOrden": 108,
    "provincia": "Toledo",
    "localidad": "Toledo",
    "madrina": "Almonte (Matriz)",
    "anioFundacion": 1982,
    "categoria": "FILIAL",
    "latitud": 39.8628,
    "longitud": -4.0273,
    "web": null
  },
  {
    "nombre": "Hermandad de Salamanca",
    "numeroOrden": 109,
    "provincia": "Salamanca",
    "localidad": "Salamanca",
    "madrina": "Almonte (Matriz)",
    "anioFundacion": 1983,
    "categoria": "FILIAL",
    "latitud": 40.9701,
    "longitud": -5.6635,
    "web": null
  },
  {
    "nombre": "Hermandad de Ciudad Real",
    "numeroOrden": 110,
    "provincia": "Ciudad Real",
    "localidad": "Ciudad Real",
    "madrina": "Almonte (Matriz)",
    "anioFundacion": 1983,
    "categoria": "FILIAL",
    "latitud": 38.9853,
    "longitud": -3.9274,
    "web": null
  },
  {
    "nombre": "Hermandad de Bilbao",
    "numeroOrden": 111,
    "provincia": "Vizcaya",
    "localidad": "Bilbao",
    "madrina": "Almonte (Matriz)",
    "anioFundacion": 1984,
    "categoria": "FILIAL",
    "latitud": 43.2630,
    "longitud": -2.9349,
    "web": null
  },
  {
    "nombre": "Hermandad de Las Palmas de Gran Canaria",
    "numeroOrden": 112,
    "provincia": "Las Palmas",
    "localidad": "Las Palmas de Gran Canaria",
    "madrina": "Almonte (Matriz)",
    "anioFundacion": 1984,
    "categoria": "FILIAL",
    "latitud": 28.1235,
    "longitud": -15.4362,
    "web": null
  },
  {
    "nombre": "Hermandad de Santa Cruz de Tenerife",
    "numeroOrden": 113,
    "provincia": "Santa Cruz de Tenerife",
    "localidad": "Santa Cruz de Tenerife",
    "madrina": "Almonte (Matriz)",
    "anioFundacion": 1985,
    "categoria": "FILIAL",
    "latitud": 28.4636,
    "longitud": -16.2518,
    "web": null
  },
  {
    "nombre": "Hermandad de Loja",
    "numeroOrden": 114,
    "provincia": "Granada",
    "localidad": "Loja",
    "madrina": "Almonte (Matriz)",
    "anioFundacion": 1985,
    "categoria": "FILIAL",
    "latitud": 37.1659,
    "longitud": -4.1500,
    "web": null
  },
  {
    "nombre": "Hermandad de Baeza",
    "numeroOrden": 115,
    "provincia": "Jaén",
    "localidad": "Baeza",
    "madrina": "Almonte (Matriz)",
    "anioFundacion": 1986,
    "categoria": "FILIAL",
    "latitud": 37.9957,
    "longitud": -3.4694,
    "web": null
  },
  {
    "nombre": "Hermandad de Albacete",
    "numeroOrden": 116,
    "provincia": "Albacete",
    "localidad": "Albacete",
    "madrina": "Almonte (Matriz)",
    "anioFundacion": 1987,
    "categoria": "FILIAL",
    "latitud": 38.9943,
    "longitud": -1.8585,
    "web": null
  },
  {
    "nombre": "Hermandad de Sevilla (Cerro del Águila)",
    "numeroOrden": 117,
    "provincia": "Sevilla",
    "localidad": "Sevilla",
    "madrina": "Almonte (Matriz)",
    "anioFundacion": 1987,
    "categoria": "FILIAL",
    "latitud": 37.3700,
    "longitud": -5.9600,
    "web": null
  },
  {
    "nombre": "Hermandad de Alcalá de Henares",
    "numeroOrden": 118,
    "provincia": "Madrid",
    "localidad": "Alcalá de Henares",
    "madrina": "Almonte (Matriz)",
    "anioFundacion": 1988,
    "categoria": "FILIAL",
    "latitud": 40.4817,
    "longitud": -3.3636,
    "web": null
  },
  {
    "nombre": "Hermandad de Getafe",
    "numeroOrden": 119,
    "provincia": "Madrid",
    "localidad": "Getafe",
    "madrina": "Almonte (Matriz)",
    "anioFundacion": 1989,
    "categoria": "FILIAL",
    "latitud": 40.3055,
    "longitud": -3.7326,
    "web": null
  },
  {
    "nombre": "Hermandad de Dos Hermanas (San Sebastián)",
    "numeroOrden": 120,
    "provincia": "Sevilla",
    "localidad": "Dos Hermanas",
    "madrina": "Almonte (Matriz)",
    "anioFundacion": 1990,
    "categoria": "FILIAL",
    "latitud": 37.2800,
    "longitud": -5.9180,
    "web": null
  },
  {
    "nombre": "Hermandad de Huelva (La Divina Pastora)",
    "numeroOrden": 121,
    "provincia": "Huelva",
    "localidad": "Huelva",
    "madrina": "Almonte (Matriz)",
    "anioFundacion": 1991,
    "categoria": "FILIAL",
    "latitud": 37.2560,
    "longitud": -6.9510,
    "web": null
  },
  {
    "nombre": "Hermandad de Sevilla (Capillitas)",
    "numeroOrden": 122,
    "provincia": "Sevilla",
    "localidad": "Sevilla",
    "madrina": "Almonte (Matriz)",
    "anioFundacion": 1992,
    "categoria": "FILIAL",
    "latitud": 37.3820,
    "longitud": -5.9940,
    "web": null
  },
  {
    "nombre": "Hermandad de Guadalajara",
    "numeroOrden": 123,
    "provincia": "Guadalajara",
    "localidad": "Guadalajara",
    "madrina": "Almonte (Matriz)",
    "anioFundacion": 1993,
    "categoria": "FILIAL",
    "latitud": 40.6321,
    "longitud": -3.1671,
    "web": null
  },
  {
    "nombre": "Hermandad de Córdoba (San Rafael)",
    "numeroOrden": 124,
    "provincia": "Córdoba",
    "localidad": "Córdoba",
    "madrina": "Almonte (Matriz)",
    "anioFundacion": 1995,
    "categoria": "FILIAL",
    "latitud": 37.8920,
    "longitud": -4.7810,
    "web": null
  },
  {
    "nombre": "Hermandad de Sevilla (San Bernardo)",
    "numeroOrden": 125,
    "provincia": "Sevilla",
    "localidad": "Sevilla",
    "madrina": "Almonte (Matriz)",
    "anioFundacion": 1997,
    "categoria": "FILIAL",
    "latitud": 37.3760,
    "longitud": -5.9820,
    "web": null
  },
  {
    "nombre": "Hermandad de Huelva (La Orden)",
    "numeroOrden": 126,
    "provincia": "Huelva",
    "localidad": "Huelva",
    "madrina": "Almonte (Matriz)",
    "anioFundacion": 2000,
    "categoria": "FILIAL",
    "latitud": 37.2700,
    "longitud": -6.9300,
    "web": null
  },
  {
    "nombre": "Hermandad de Sevilla (Polígono Sur)",
    "numeroOrden": 127,
    "provincia": "Sevilla",
    "localidad": "Sevilla",
    "madrina": "Almonte (Matriz)",
    "anioFundacion": 2003,
    "categoria": "FILIAL",
    "latitud": 37.3480,
    "longitud": -5.9750,
    "web": null
  }
]
