[
  {
    "nombre": "Hermandad de Villamanrique de la Condesa",
    "numeroOrden": 1,
    "provincia": "Sevilla",
    "localidad": "Villamanrique de la Condesa",
    "madrina": null,
    "anioFundacion": null,
    "categoria": "FILIAL",
    "latitud": 37.2500,
    "longitud": -6.3167,
    "web": null
  },
  {
    "nombre": "Hermandad de Pilas",
    "numeroOrden": 2,
    "provincia": "Sevilla",
    "localidad": "Pilas",
    "madrina": null,
    "anioFundacion": null,
    "categoria": "FILIAL",
    "latitud": 37.2966,
    "longitud": -6.3019,
    "web": null
  },
  {
    "nombre": "Hermandad de La Palma del Condado",
    "numeroOrden": 3,
    "provincia": "Huelva",
    "localidad": "La Palma del Condado",
    "madrina": null,
    "anioFundacion": null,
    "categoria": "FILIAL",
    "latitud": 37.3897,
    "longitud": -6.5516,
    "web": null
  },
  {
    "nombre": "Hermandad de Moguer",
    "numeroOrden": 4,
    "provincia": "Huelva",
    "localidad": "Moguer",
    "madrina": null,
    "anioFundacion": null,
    "categoria": "FILIAL",
    "latitud": 37.2742,
    "longitud": -6.8381,
    "web": null
  },
  {
    "nombre": "Hermandad de Sanlúcar de Barrameda",
    "numeroOrden": 5,
    "provincia": "Cádiz",
    "localidad": "Sanlúcar de Barrameda",
    "madrina": null,
    "anioFundacion": null,
    "categoria": "FILIAL",
    "latitud": 36.7784,
    "longitud": -6.3532,
    "web": null
  },
  {
    "nombre": "Hermandad de Triana",
    "numeroOrden": 6,
    "provincia": "Sevilla",
    "localidad": "Sevilla",
    "madrina": null,
    "anioFundacion": 1813,
    "categoria": "FILIAL",
    "latitud": 37.3826,
    "longitud": -6.0025,
    "web": null
  },
  {
    "nombre": "Hermandad de Umbrete",
    "numeroOrden": 7,
    "provincia": "Sevilla",
    "localidad": "Umbrete",
    "madrina": null,
    "anioFundacion": 1814,
    "categoria": "FILIAL",
    "latitud": 37.3691,
    "longitud": -6.1714,
    "web": null
  },
  {
    "nombre": "Hermandad de Coria del Río",
    "numeroOrden": 8,
    "provincia": "Sevilla",
    "localidad": "Coria del Río",
    "madrina": null,
    "anioFundacion": 1849,
    "categoria": "FILIAL",
    "latitud": 37.2959,
    "longitud": -6.0514,
    "web": null
  },
  {
    "nombre": "Hermandad de Huelva",
    "numeroOrden": 9,
    "provincia": "Huelva",
    "localidad": "Huelva",
    "madrina": null,
    "anioFundacion": 1880,
    "categoria": "FILIAL",
    "latitud": 37.2614,
    "longitud": -6.9447,
    "web": null
  },
  {
    "nombre": "Hermandad de San Juan del Puerto",
    "numeroOrden": 10,
    "provincia": "Huelva",
    "localidad": "San Juan del Puerto",
    "madrina": null,
    "anioFundacion": 1913,
    "categoria": "FILIAL",
    "latitud": 37.3178,
    "longitud": -6.8389,
    "web": null
  },
  {
    "nombre": "Hermandad de Carrión de los Céspedes",
    "numeroOrden": 11,
    "provincia": "Sevilla",
    "localidad": "Carrión de los Céspedes",
    "madrina": null,
    "anioFundacion": 1915,
    "categoria": "FILIAL",
    "latitud": 37.3100,
    "longitud": -6.2200,
    "web": null
  },
  {
    "nombre": "Hermandad de Rociana del Condado",
    "numeroOrden": 12,
    "provincia": "Huelva",
    "localidad": "Rociana del Condado",
    "madrina": null,
    "anioFundacion": 1919,
    "categoria": "FILIAL",
    "latitud": 37.3271,
    "longitud": -6.6022,
    "web": null
  },
  {
    "nombre": "Hermandad de Benacazón",
    "numeroOrden": 13,
    "provincia": "Sevilla",
    "localidad": "Benacazón",
    "madrina": null,
    "anioFundacion": 1925,
    "categoria": "FILIAL",
    "latitud": 37.3437,
    "longitud": -6.2193,
    "web": null
  },
  {
    "nombre": "Hermandad de Trigueros",
    "numeroOrden": 14,
    "provincia": "Huelva",
    "localidad": "Trigueros",
    "madrina": null,
    "anioFundacion": 1930,
    "categoria": "FILIAL",
    "latitud": 37.3841,
    "longitud": -6.8230,
    "web": null
  },
  {
    "nombre": "Hermandad de Gines",
    "numeroOrden": 15,
    "provincia": "Sevilla",
    "localidad": "Gines",
    "madrina": null,
    "anioFundacion": 1930,
    "categoria": "FILIAL",
    "latitud": 37.3833,
    "longitud": -6.0714,
    "web": null
  },
  {
    "nombre": "Hermandad de Jerez de la Frontera",
    "numeroOrden": 16,
    "provincia": "Cádiz",
    "localidad": "Jerez de la Frontera",
    "madrina": null,
    "anioFundacion": 1933,
    "categoria": "FILIAL",
    "latitud": 36.6850,
    "longitud": -6.1261,
    "web": null
  },
  {
    "nombre": "Hermandad de Dos Hermanas",
    "numeroOrden": 17,
    "provincia": "Sevilla",
    "localidad": "Dos Hermanas",
    "madrina": null,
    "anioFundacion": 1933,
    "categoria": "FILIAL",
    "latitud": 37.2836,
    "longitud": -5.9224,
    "web": null
  },
  {
    "nombre": "Hermandad de Sevilla",
    "numeroOrden": 18,
    "provincia": "Sevilla",
    "localidad": "Sevilla",
    "madrina": null,
    "anioFundacion": 1934,
    "categoria": "FILIAL",
    "latitud": 37.3891,
    "longitud": -5.9845,
    "web": null
  },
  {
    "nombre": "Hermandad de Olivares",
    "numeroOrden": 19,
    "provincia": "Sevilla",
    "localidad": "Olivares",
    "madrina": null,
    "anioFundacion": 1934,
    "categoria": "FILIAL",
    "latitud": 37.4062,
    "longitud": -6.1511,
    "web": null
  },
  {
    "nombre": "Hermandad de Hinojos",
    "numeroOrden": 20,
    "provincia": "Huelva",
    "localidad": "Hinojos",
    "madrina": null,
    "anioFundacion": 1934,
    "categoria": "FILIAL",
    "latitud": 37.2789,
    "longitud": -6.3705,
    "web": null
  },
  {
    "nombre": "Hermandad de Bonares",
    "numeroOrden": 21,
    "provincia": "Huelva",
    "localidad": "Bonares",
    "madrina": null,
    "anioFundacion": 1935,
    "categoria": "FILIAL",
    "latitud": 37.3083,
    "longitud": -6.6717,
    "web": null
  },
  {
    "nombre": "Hermandad de La Puebla del Río",
    "numeroOrden": 22,
    "provincia": "Sevilla",
    "localidad": "La Puebla del Río",
    "madrina": null,
    "anioFundacion": 1935,
    "categoria": "FILIAL",
    "latitud": 37.2679,
    "longitud": -6.0444,
    "web": null
  },
  {
    "nombre": "Hermandad de Bollullos Par del Condado",
    "numeroOrden": 23,
    "provincia": "Huelva",
    "localidad": "Bollullos Par del Condado",
    "madrina": null,
    "anioFundacion": 1935,
    "categoria": "FILIAL",
    "latitud": 37.3351,
    "longitud": -6.5286,
    "web": null
  },
  {
    "nombre": "Hermandad de Valverde del Camino",
    "numeroOrden": 24,
    "provincia": "Huelva",
    "localidad": "Valverde del Camino",
    "madrina": null,
    "anioFundacion": 1935,
    "categoria": "FILIAL",
    "latitud": 37.5774,
    "longitud": -6.7536,
    "web": null
  },
  {
    "nombre": "Hermandad de Gibraleón",
    "numeroOrden": 25,
    "provincia": "Huelva",
    "localidad": "Gibraleón",
    "madrina": null,
    "anioFundacion": 1935,
    "categoria": "FILIAL",
    "latitud": 37.3817,
    "longitud": -7.0278,
    "web": null
  },
  {
    "nombre": "Hermandad de Espartinas",
    "numeroOrden": 26,
    "provincia": "Sevilla",
    "localidad": "Espartinas",
    "madrina": null,
    "anioFundacion": 1940,
    "categoria": "FILIAL",
    "latitud": 37.4000,
    "longitud": -6.1061,
    "web": null
  },
  {
    "nombre": "Hermandad de Sanlúcar la Mayor",
    "numeroOrden": 27,
    "provincia": "Sevilla",
    "localidad": "Sanlúcar la Mayor",
    "madrina": null,
    "anioFundacion": 1942,
    "categoria": "FILIAL",
    "latitud": 37.3861,
    "longitud": -6.2044,
    "web": null
  },
  {
    "nombre": "Hermandad de Lucena del Puerto",
    "numeroOrden": 28,
    "provincia": "Huelva",
    "localidad": "Lucena del Puerto",
    "madrina": null,
    "anioFundacion": 1942,
    "categoria": "FILIAL",
    "latitud": 37.2890,
    "longitud": -6.6513,
    "web": null
  },
  {
    "nombre": "Hermandad de Bollullos de la Mitación",
    "numeroOrden": 29,
    "provincia": "Sevilla",
    "localidad": "Bollullos de la Mitación",
    "madrina": null,
    "anioFundacion": 1949,
    "categoria": "FILIAL",
    "latitud": 37.3469,
    "longitud": -6.1200,
    "web": null
  },
  {
    "nombre": "Hermandad de Huévar del Aljarafe",
    "numeroOrden": 30,
    "provincia": "Sevilla",
    "localidad": "Huévar del Aljarafe",
    "madrina": null,
    "anioFundacion": 1954,
    "categoria": "FILIAL",
    "latitud": 37.3714,
    "longitud": -6.2333,
    "web": null
  },
  {
    "nombre": "Hermandad de El Puerto de Santa María",
    "numeroOrden": 31,
    "provincia": "Cádiz",
    "localidad": "El Puerto de Santa María",
    "madrina": null,
    "anioFundacion": 1957,
    "categoria": "FILIAL",
    "latitud": 36.5963,
    "longitud": -6.2302,
    "web": null
  },
  {
    "nombre": "Hermandad de Aznalcázar",
    "numeroOrden": 32,
    "provincia": "Sevilla",
    "localidad": "Aznalcázar",
    "madrina": null,
    "anioFundacion": 1959,
    "categoria": "FILIAL",
    "latitud": 37.2633,
    "longitud": -6.2618,
    "web": null
  },
  {
    "nombre": "Hermandad de Madrid",
    "numeroOrden": 33,
    "provincia": "Madrid",
    "localidad": "Madrid",
    "madrina": null,
    "anioFundacion": 1960,
    "categoria": "FILIAL",
    "latitud": 40.4168,
    "longitud": -3.7038,
    "web": null
  },
  {
    "nombre": "Hermandad de Punta Umbría",
    "numeroOrden": 34,
    "provincia": "Huelva",
    "localidad": "Punta Umbría",
    "madrina": null,
    "anioFundacion": 1966,
    "categoria": "FILIAL",
    "latitud": 37.1729,
    "longitud": -7.0506,
    "web": null
  },
  {
    "nombre": "Hermandad de Barcelona",
    "numeroOrden": 35,
    "provincia": "Barcelona",
    "localidad": "Barcelona",
    "madrina": null,
    "anioFundacion": 1970,
    "categoria": "FILIAL",
    "latitud": 41.3851,
    "longitud": 2.1734,
    "web": null
  },
  {
    "nombre": "Hermandad de Palos de la Frontera",
    "numeroOrden": 36,
    "provincia": "Huelva",
    "localidad": "Palos de la Frontera",
    "madrina": null,
    "anioFundacion": 1970,
    "categoria": "FILIAL",
    "latitud": 37.2318,
    "longitud": -6.8994,
    "web": null
  },
  {
    "nombre": "Hermandad de los Emigrantes",
    "numeroOrden": 37,
    "provincia": "Huelva",
    "localidad": "Huelva",
    "madrina": null,
    "anioFundacion": 1970,
    "categoria": "FILIAL",
    "latitud": 37.2614,
    "longitud": -6.9500,
    "web": null
  },
  {
    "nombre": "Hermandad de Paterna del Campo",
    "numeroOrden": 38,
    "provincia": "Huelva",
    "localidad": "Paterna del Campo",
    "madrina": null,
    "anioFundacion": null,
    "categoria": "FILIAL",
    "latitud": 37.4826,
    "longitud": -6.5994,
    "web": null
  },
  {
    "nombre": "Hermandad de Villanueva del Ariscal",
    "numeroOrden": 39,
    "provincia": "Sevilla",
    "localidad": "Villanueva del Ariscal",
    "madrina": null,
    "anioFundacion": 1971,
    "categoria": "FILIAL",
    "latitud": 37.4053,
    "longitud": -6.1553,
    "web": null
  },
  {
    "nombre": "Hermandad de Lucena de Córdoba",
    "numeroOrden": 40,
    "provincia": "Córdoba",
    "localidad": "Lucena",
    "madrina": null,
    "anioFundacion": 1972,
    "categoria": "FILIAL",
    "latitud": 37.4091,
    "longitud": -4.4843,
    "web": null
  },
  {
    "nombre": "Hermandad de Los Palacios y Villafranca",
    "numeroOrden": 41,
    "provincia": "Sevilla",
    "localidad": "Los Palacios y Villafranca",
    "madrina": null,
    "anioFundacion": 1972,
    "categoria": "FILIAL",
    "latitud": 37.1632,
    "longitud": -5.9263,
    "web": null
  },
  {
    "nombre": "Hermandad de Écija",
    "numeroOrden": 42,
    "provincia": "Sevilla",
    "localidad": "Écija",
    "madrina": null,
    "anioFundacion": 1973,
    "categoria": "FILIAL",
    "latitud": 37.5416,
    "longitud": -5.0823,
    "web": null
  },
  {
    "nombre": "Hermandad de Villarrasa",
    "numeroOrden": 43,
    "provincia": "Huelva",
    "localidad": "Villarrasa",
    "madrina": null,
    "anioFundacion": 1973,
    "categoria": "FILIAL",
    "latitud": 37.3958,
    "longitud": -6.6281,
    "web": null
  },
  {
    "nombre": "Hermandad de Isla Cristina",
    "numeroOrden": 44,
    "provincia": "Huelva",
    "localidad": "Isla Cristina",
    "madrina": null,
    "anioFundacion": 1974,
    "categoria": "FILIAL",
    "latitud": 37.2009,
    "longitud": -7.3226,
    "web": null
  },
  {
    "nombre": "Hermandad de Bormujos",
    "numeroOrden": 45,
    "provincia": "Sevilla",
    "localidad": "Bormujos",
    "madrina": null,
    "anioFundacion": 1976,
    "categoria": "FILIAL",
    "latitud": 37.3577,
    "longitud": -6.0906,
    "web": null
  },
  {
    "nombre": "Hermandad de Camas",
    "numeroOrden": 46,
    "provincia": "Sevilla",
    "localidad": "Camas",
    "madrina": null,
    "anioFundacion": 1976,
    "categoria": "FILIAL",
    "latitud": 37.3959,
    "longitud": -6.0326,
    "web": null
  },
  {
    "nombre": "Hermandad de Las Palmas de Gran Canaria",
    "numeroOrden": 47,
    "provincia": "Las Palmas",
    "localidad": "Las Palmas de Gran Canaria",
    "madrina": null,
    "anioFundacion": 1977,
    "categoria": "FILIAL",
    "latitud": 28.1235,
    "longitud": -15.4362,
    "web": null
  },
  {
    "nombre": "Hermandad de Lebrija",
    "numeroOrden": 48,
    "provincia": "Sevilla",
    "localidad": "Lebrija",
    "madrina": null,
    "anioFundacion": 1977,
    "categoria": "FILIAL",
    "latitud": 36.9219,
    "longitud": -6.0742,
    "web": null
  },
  {
    "nombre": "Hermandad de La Línea de la Concepción",
    "numeroOrden": 49,
    "provincia": "Cádiz",
    "localidad": "La Línea de la Concepción",
    "madrina": null,
    "anioFundacion": 1977,
    "categoria": "FILIAL",
    "latitud": 36.1678,
    "longitud": -5.3492,
    "web": null
  },
  {
    "nombre": "Hermandad de Rota",
    "numeroOrden": 50,
    "provincia": "Cádiz",
    "localidad": "Rota",
    "madrina": null,
    "anioFundacion": 1978,
    "categoria": "FILIAL",
    "latitud": 36.6229,
    "longitud": -6.3592,
    "web": null
  },
  {
    "nombre": "Hermandad de Ayamonte",
    "numeroOrden": 51,
    "provincia": "Huelva",
    "localidad": "Ayamonte",
    "madrina": null,
    "anioFundacion": 1978,
    "categoria": "FILIAL",
    "latitud": 37.2112,
    "longitud": -7.4048,
    "web": null
  },
  {
    "nombre": "Hermandad de Málaga",
    "numeroOrden": 52,
    "provincia": "Málaga",
    "localidad": "Málaga",
    "madrina": null,
    "anioFundacion": 1978,
    "categoria": "FILIAL",
    "latitud": 36.7213,
    "longitud": -4.4214,
    "web": null
  },
  {
    "nombre": "Hermandad de Villalba del Alcor",
    "numeroOrden": 53,
    "provincia": "Huelva",
    "localidad": "Villalba del Alcor",
    "madrina": null,
    "anioFundacion": 1979,
    "categoria": "FILIAL",
    "latitud": 37.4236,
    "longitud": -6.5149,
    "web": null
  },
  {
    "nombre": "Hermandad de Granada",
    "numeroOrden": 54,
    "provincia": "Granada",
    "localidad": "Granada",
    "madrina": null,
    "anioFundacion": 1979,
    "categoria": "FILIAL",
    "latitud": 37.1773,
    "longitud": -3.5986,
    "web": null
  },
  {
    "nombre": "Hermandad de Isla Mayor",
    "numeroOrden": 55,
    "provincia": "Sevilla",
    "localidad": "Isla Mayor",
    "madrina": null,
    "anioFundacion": 1979,
    "categoria": "FILIAL",
    "latitud": 37.1058,
    "longitud": -6.1397,
    "web": null
  },
  {
    "nombre": "Hermandad de Cabra",
    "numeroOrden": 56,
    "provincia": "Córdoba",
    "localidad": "Cabra",
    "madrina": null,
    "anioFundacion": 1979,
    "categoria": "FILIAL",
    "latitud": 37.4716,
    "longitud": -4.4446,
    "web": null
  },
  {
    "nombre": "Hermandad de Córdoba",
    "numeroOrden": 57,
    "provincia": "Córdoba",
    "localidad": "Córdoba",
    "madrina": null,
    "anioFundacion": 1979,
    "categoria": "FILIAL",
    "latitud": 37.8882,
    "longitud": -4.7794,
    "web": null
  },
  {
    "nombre": "Hermandad de Puerto Real",
    "numeroOrden": 58,
    "provincia": "Cádiz",
    "localidad": "Puerto Real",
    "madrina": null,
    "anioFundacion": 1977,
    "categoria": "FILIAL",
    "latitud": 36.5290,
    "longitud": -6.1897,
    "web": null
  },
  {
    "nombre": "Hermandad de Cádiz",
    "numeroOrden": 59,
    "provincia": "Cádiz",
    "localidad": "Cádiz",
    "madrina": null,
    "anioFundacion": 1982,
    "categoria": "FILIAL",
    "latitud": 36.5298,
    "longitud": -6.2924,
    "web": null
  },
  {
    "nombre": "Hermandad de Puente Genil",
    "numeroOrden": 60,
    "provincia": "Córdoba",
    "localidad": "Puente Genil",
    "madrina": null,
    "anioFundacion": 1982,
    "categoria": "FILIAL",
    "latitud": 37.3909,
    "longitud": -4.7754,
    "web": null
  },
  {
    "nombre": "Hermandad de Jaén",
    "numeroOrden": 61,
    "provincia": "Jaén",
    "localidad": "Jaén",
    "madrina": null,
    "anioFundacion": 1982,
    "categoria": "FILIAL",
    "latitud": 37.7796,
    "longitud": -3.7849,
    "web": null
  },
  {
    "nombre": "Hermandad de Castillo de Locubín",
    "numeroOrden": 62,
    "provincia": "Jaén",
    "localidad": "Castillo de Locubín",
    "madrina": null,
    "anioFundacion": 1982,
    "categoria": "FILIAL",
    "latitud": 37.5281,
    "longitud": -3.9225,
    "web": null
  },
  {
    "nombre": "Hermandad de Alcalá de Guadaíra",
    "numeroOrden": 63,
    "provincia": "Sevilla",
    "localidad": "Alcalá de Guadaíra",
    "madrina": null,
    "anioFundacion": 1983,
    "categoria": "FILIAL",
    "latitud": 37.3375,
    "longitud": -5.8443,
    "web": null
  },
  {
    "nombre": "Hermandad de Algeciras",
    "numeroOrden": 64,
    "provincia": "Cádiz",
    "localidad": "Algeciras",
    "madrina": null,
    "anioFundacion": 1984,
    "categoria": "FILIAL",
    "latitud": 36.1408,
    "longitud": -5.4530,
    "web": null
  },
  {
    "nombre": "Hermandad de Marbella",
    "numeroOrden": 65,
    "provincia": "Málaga",
    "localidad": "Marbella",
    "madrina": null,
    "anioFundacion": 1984,
    "categoria": "FILIAL",
    "latitud": 36.5101,
    "longitud": -4.8825,
    "web": null
  },
  {
    "nombre": "Hermandad de Utrera",
    "numeroOrden": 66,
    "provincia": "Sevilla",
    "localidad": "Utrera",
    "madrina": null,
    "anioFundacion": 1985,
    "categoria": "FILIAL",
    "latitud": 37.1836,
    "longitud": -5.7822,
    "web": null
  },
  {
    "nombre": "Hermandad de Tocina",
    "numeroOrden": 67,
    "provincia": "Sevilla",
    "localidad": "Tocina",
    "madrina": null,
    "anioFundacion": 1986,
    "categoria": "FILIAL",
    "latitud": 37.6007,
    "longitud": -5.6917,
    "web": null
  },
  {
    "nombre": "Hermandad de Gelves",
    "numeroOrden": 68,
    "provincia": "Sevilla",
    "localidad": "Gelves",
    "madrina": null,
    "anioFundacion": 1986,
    "categoria": "FILIAL",
    "latitud": 37.3358,
    "longitud": -6.0247,
    "web": null
  },
  {
    "nombre": "Hermandad de Almería",
    "numeroOrden": 69,
    "provincia": "Almería",
    "localidad": "Almería",
    "madrina": null,
    "anioFundacion": 1986,
    "categoria": "FILIAL",
    "latitud": 36.8381,
    "longitud": -2.4597,
    "web": null
  },
  {
    "nombre": "Hermandad del Cerro del Águila",
    "numeroOrden": 70,
    "provincia": "Sevilla",
    "localidad": "Sevilla",
    "madrina": null,
    "anioFundacion": 1986,
    "categoria": "FILIAL",
    "latitud": 37.3720,
    "longitud": -5.9640,
    "web": null
  },
  {
    "nombre": "Hermandad de Sevilla Sur",
    "numeroOrden": 71,
    "provincia": "Sevilla",
    "localidad": "Sevilla",
    "madrina": null,
    "anioFundacion": 1986,
    "categoria": "FILIAL",
    "latitud": 37.3500,
    "longitud": -5.9800,
    "web": null
  },
  {
    "nombre": "Hermandad de Toledo",
    "numeroOrden": 72,
    "provincia": "Toledo",
    "localidad": "Toledo",
    "madrina": null,
    "anioFundacion": 1986,
    "categoria": "FILIAL",
    "latitud": 39.8628,
    "longitud": -4.0273,
    "web": null
  },
  {
    "nombre": "Hermandad de Almensilla",
    "numeroOrden": 73,
    "provincia": "Sevilla",
    "localidad": "Almensilla",
    "madrina": null,
    "anioFundacion": 1986,
    "categoria": "FILIAL",
    "latitud": 37.2983,
    "longitud": -6.1033,
    "web": null
  },
  {
    "nombre": "Hermandad de Las Cabezas de San Juan",
    "numeroOrden": 74,
    "provincia": "Sevilla",
    "localidad": "Las Cabezas de San Juan",
    "madrina": null,
    "anioFundacion": 1987,
    "categoria": "FILIAL",
    "latitud": 36.9856,
    "longitud": -5.9384,
    "web": null
  },
  {
    "nombre": "Hermandad de San Juan de Aznalfarache",
    "numeroOrden": 75,
    "provincia": "Sevilla",
    "localidad": "San Juan de Aznalfarache",
    "madrina": null,
    "anioFundacion": 1987,
    "categoria": "FILIAL",
    "latitud": 37.3612,
    "longitud": -6.0166,
    "web": null
  },
  {
    "nombre": "Hermandad de Fuengirola",
    "numeroOrden": 76,
    "provincia": "Málaga",
    "localidad": "Fuengirola",
    "madrina": null,
    "anioFundacion": 1987,
    "categoria": "FILIAL",
    "latitud": 36.5400,
    "longitud": -4.6248,
    "web": null
  },
  {
    "nombre": "Hermandad de Ceuta",
    "numeroOrden": 77,
    "provincia": "Ceuta",
    "localidad": "Ceuta",
    "madrina": null,
    "anioFundacion": 1987,
    "categoria": "FILIAL",
    "latitud": 35.8894,
    "longitud": -5.3198,
    "web": null
  },
  {
    "nombre": "Hermandad de Osuna",
    "numeroOrden": 78,
    "provincia": "Sevilla",
    "localidad": "Osuna",
    "madrina": null,
    "anioFundacion": 1988,
    "categoria": "FILIAL",
    "latitud": 37.2382,
    "longitud": -5.1030,
    "web": null
  },
  {
    "nombre": "Hermandad de Valencia",
    "numeroOrden": 79,
    "provincia": "Valencia",
    "localidad": "Valencia",
    "madrina": null,
    "anioFundacion": 1981,
    "categoria": "FILIAL",
    "latitud": 39.4699,
    "longitud": -0.3763,
    "web": null
  },
  {
    "nombre": "Hermandad de Santiponce",
    "numeroOrden": 80,
    "provincia": "Sevilla",
    "localidad": "Santiponce",
    "madrina": null,
    "anioFundacion": 1989,
    "categoria": "FILIAL",
    "latitud": 37.4294,
    "longitud": -6.0469,
    "web": null
  },
  {
    "nombre": "Hermandad de Mairena del Alcor",
    "numeroOrden": 81,
    "provincia": "Sevilla",
    "localidad": "Mairena del Alcor",
    "madrina": null,
    "anioFundacion": 1989,
    "categoria": "FILIAL",
    "latitud": 37.3667,
    "longitud": -5.7206,
    "web": null
  },
  {
    "nombre": "Hermandad de Sevilla-Macarena",
    "numeroOrden": 82,
    "provincia": "Sevilla",
    "localidad": "Sevilla",
    "madrina": null,
    "anioFundacion": 1989,
    "categoria": "FILIAL",
    "latitud": 37.3987,
    "longitud": -5.9929,
    "web": null
  },
  {
    "nombre": "Hermandad de Málaga (La Caleta)",
    "numeroOrden": 83,
    "provincia": "Málaga",
    "localidad": "Málaga",
    "madrina": null,
    "anioFundacion": 1989,
    "categoria": "FILIAL",
    "latitud": 36.7250,
    "longitud": -4.3900,
    "web": null
  },
  {
    "nombre": "Hermandad de Carmona",
    "numeroOrden": 84,
    "provincia": "Sevilla",
    "localidad": "Carmona",
    "madrina": null,
    "anioFundacion": 1990,
    "categoria": "FILIAL",
    "latitud": 37.4714,
    "longitud": -5.6422,
    "web": null
  },
  {
    "nombre": "Hermandad de Niebla",
    "numeroOrden": 85,
    "provincia": "Huelva",
    "localidad": "Niebla",
    "madrina": null,
    "anioFundacion": 1990,
    "categoria": "FILIAL",
    "latitud": 37.3614,
    "longitud": -6.6764,
    "web": null
  },
  {
    "nombre": "Hermandad de Alcalá la Real",
    "numeroOrden": 86,
    "provincia": "Jaén",
    "localidad": "Alcalá la Real",
    "madrina": null,
    "anioFundacion": 1990,
    "categoria": "FILIAL",
    "latitud": 37.4616,
    "longitud": -3.9228,
    "web": null
  },
  {
    "nombre": "Hermandad de Ronda",
    "numeroOrden": 87,
    "provincia": "Málaga",
    "localidad": "Ronda",
    "madrina": null,
    "anioFundacion": 1990,
    "categoria": "FILIAL",
    "latitud": 36.7461,
    "longitud": -5.1615,
    "web": null
  },
  {
    "nombre": "Hermandad de La Algaba",
    "numeroOrden": 88,
    "provincia": "Sevilla",
    "localidad": "La Algaba",
    "madrina": null,
    "anioFundacion": 1991,
    "categoria": "FILIAL",
    "latitud": 37.4597,
    "longitud": -6.0053,
    "web": null
  },
  {
    "nombre": "Hermandad de Murcia",
    "numeroOrden": 89,
    "provincia": "Murcia",
    "localidad": "Murcia",
    "madrina": null,
    "anioFundacion": 1991,
    "categoria": "FILIAL",
    "latitud": 37.9922,
    "longitud": -1.1307,
    "web": null
  },
  {
    "nombre": "Hermandad de Priego de Córdoba",
    "numeroOrden": 90,
    "provincia": "Córdoba",
    "localidad": "Priego de Córdoba",
    "madrina": null,
    "anioFundacion": 1991,
    "categoria": "FILIAL",
    "latitud": 37.4395,
    "longitud": -4.1952,
    "web": null
  },
  {
    "nombre": "Hermandad de Badajoz",
    "numeroOrden": 91,
    "provincia": "Badajoz",
    "localidad": "Badajoz",
    "madrina": null,
    "anioFundacion": 1992,
    "categoria": "FILIAL",
    "latitud": 38.8794,
    "longitud": -6.9706,
    "web": null
  },
  {
    "nombre": "Hermandad de Tomares",
    "numeroOrden": 92,
    "provincia": "Sevilla",
    "localidad": "Tomares",
    "madrina": null,
    "anioFundacion": 1993,
    "categoria": "FILIAL",
    "latitud": 37.3666,
    "longitud": -6.0522,
    "web": null
  },
  {
    "nombre": "Hermandad de Chucena",
    "numeroOrden": 93,
    "provincia": "Huelva",
    "localidad": "Chucena",
    "madrina": null,
    "anioFundacion": 1994,
    "categoria": "FILIAL",
    "latitud": 37.3955,
    "longitud": -6.6958,
    "web": null
  },
  {
    "nombre": "Hermandad de Manzanilla",
    "numeroOrden": 94,
    "provincia": "Huelva",
    "localidad": "Manzanilla",
    "madrina": null,
    "anioFundacion": 1994,
    "categoria": "FILIAL",
    "latitud": 37.3782,
    "longitud": -6.4154,
    "web": null
  },
  {
    "nombre": "Hermandad de Arcos de la Frontera",
    "numeroOrden": 95,
    "provincia": "Cádiz",
    "localidad": "Arcos de la Frontera",
    "madrina": null,
    "anioFundacion": null,
    "categoria": "FILIAL",
    "latitud": 36.7480,
    "longitud": -5.8133,
    "web": null
  },
  {
    "nombre": "Hermandad de Bruselas",
    "numeroOrden": 96,
    "provincia": "Bélgica",
    "localidad": "Bruselas",
    "madrina": null,
    "anioFundacion": null,
    "categoria": "FILIAL",
    "latitud": 50.8503,
    "longitud": 4.3517,
    "web": null
  },
  {
    "nombre": "Hermandad de Estepona",
    "numeroOrden": 97,
    "provincia": "Málaga",
    "localidad": "Estepona",
    "madrina": null,
    "anioFundacion": null,
    "categoria": "FILIAL",
    "latitud": 36.4274,
    "longitud": -5.1478,
    "web": null
  },
  {
    "nombre": "Hermandad de Escacena del Campo",
    "numeroOrden": 98,
    "provincia": "Huelva",
    "localidad": "Escacena del Campo",
    "madrina": null,
    "anioFundacion": null,
    "categoria": "FILIAL",
    "latitud": 37.4427,
    "longitud": -6.5879,
    "web": null
  },
  {
    "nombre": "Hermandad de Alicante",
    "numeroOrden": 99,
    "provincia": "Alicante",
    "localidad": "Alicante",
    "madrina": null,
    "anioFundacion": null,
    "categoria": "FILIAL",
    "latitud": 38.3452,
    "longitud": -0.4810,
    "web": null
  },
  {
    "nombre": "Hermandad de Alcalá de Henares",
    "numeroOrden": 100,
    "provincia": "Madrid",
    "localidad": "Alcalá de Henares",
    "madrina": null,
    "anioFundacion": null,
    "categoria": "FILIAL",
    "latitud": 40.4817,
    "longitud": -3.3636,
    "web": null
  },
  {
    "nombre": "Hermandad de Guadix",
    "numeroOrden": 101,
    "provincia": "Granada",
    "localidad": "Guadix",
    "madrina": null,
    "anioFundacion": null,
    "categoria": "FILIAL",
    "latitud": 37.2990,
    "longitud": -3.1381,
    "web": null
  },
  {
    "nombre": "Hermandad de Palma de Mallorca",
    "numeroOrden": 102,
    "provincia": "Illes Balears",
    "localidad": "Palma de Mallorca",
    "madrina": null,
    "anioFundacion": null,
    "categoria": "FILIAL",
    "latitud": 39.5696,
    "longitud": 2.6502,
    "web": null
  },
  {
    "nombre": "Hermandad de Mairena del Aljarafe",
    "numeroOrden": 103,
    "provincia": "Sevilla",
    "localidad": "Mairena del Aljarafe",
    "madrina": null,
    "anioFundacion": null,
    "categoria": "FILIAL",
    "latitud": 37.3438,
    "longitud": -6.0619,
    "web": null
  },
  {
    "nombre": "Hermandad de San Fernando",
    "numeroOrden": 104,
    "provincia": "Cádiz",
    "localidad": "San Fernando",
    "madrina": null,
    "anioFundacion": null,
    "categoria": "FILIAL",
    "latitud": 36.4762,
    "longitud": -6.2034,
    "web": null
  },
  {
    "nombre": "Hermandad de Palomares del Río",
    "numeroOrden": 105,
    "provincia": "Sevilla",
    "localidad": "Palomares del Río",
    "madrina": null,
    "anioFundacion": null,
    "categoria": "FILIAL",
    "latitud": 37.3119,
    "longitud": -6.0681,
    "web": null
  },
  {
    "nombre": "Hermandad de Morón de la Frontera",
    "numeroOrden": 106,
    "provincia": "Sevilla",
    "localidad": "Morón de la Frontera",
    "madrina": null,
    "anioFundacion": null,
    "categoria": "FILIAL",
    "latitud": 37.1262,
    "longitud": -5.4528,
    "web": null
  },
  {
    "nombre": "Hermandad de Pozuelo de Alarcón",
    "numeroOrden": 107,
    "provincia": "Madrid",
    "localidad": "Pozuelo de Alarcón",
    "madrina": null,
    "anioFundacion": null,
    "categoria": "FILIAL",
    "latitud": 40.4350,
    "longitud": -3.8141,
    "web": null
  },
  {
    "nombre": "Hermandad de San Antonio de Portmany",
    "numeroOrden": 108,
    "provincia": "Illes Balears",
    "localidad": "San Antonio de Portmany",
    "madrina": null,
    "anioFundacion": null,
    "categoria": "FILIAL",
    "latitud": 38.9803,
    "longitud": 1.3073,
    "web": null
  },
  {
    "nombre": "Hermandad de Cornellà de Llobregat",
    "numeroOrden": 109,
    "provincia": "Barcelona",
    "localidad": "Cornellà de Llobregat",
    "madrina": null,
    "anioFundacion": null,
    "categoria": "FILIAL",
    "latitud": 41.3548,
    "longitud": 2.0834,
    "web": null
  },
  {
    "nombre": "Hermandad de Chiclana de la Frontera",
    "numeroOrden": 110,
    "provincia": "Cádiz",
    "localidad": "Chiclana de la Frontera",
    "madrina": null,
    "anioFundacion": null,
    "categoria": "FILIAL",
    "latitud": 36.4191,
    "longitud": -6.1476,
    "web": null
  },
  {
    "nombre": "Hermandad de Chipiona",
    "numeroOrden": 111,
    "provincia": "Cádiz",
    "localidad": "Chipiona",
    "madrina": null,
    "anioFundacion": null,
    "categoria": "FILIAL",
    "latitud": 36.7342,
    "longitud": -6.4372,
    "web": null
  },
  {
    "nombre": "Hermandad Castrense",
    "numeroOrden": 112,
    "provincia": null,
    "localidad": "Castrense",
    "madrina": null,
    "anioFundacion": null,
    "categoria": "FILIAL",
    "latitud": null,
    "longitud": null,
    "web": null
  },
  {
    "nombre": "Hermandad de Albaida del Aljarafe",
    "numeroOrden": 113,
    "provincia": "Sevilla",
    "localidad": "Albaida del Aljarafe",
    "madrina": null,
    "anioFundacion": null,
    "categoria": "FILIAL",
    "latitud": 37.3339,
    "longitud": -6.1294,
    "web": null
  },
  {
    "nombre": "Hermandad de Santa Fe",
    "numeroOrden": 114,
    "provincia": "Granada",
    "localidad": "Santa Fe",
    "madrina": null,
    "anioFundacion": null,
    "categoria": "FILIAL",
    "latitud": 37.1878,
    "longitud": -3.7247,
    "web": null
  },
  {
    "nombre": "Hermandad de Torrejón de Ardoz",
    "numeroOrden": 115,
    "provincia": "Madrid",
    "localidad": "Torrejón de Ardoz",
    "madrina": null,
    "anioFundacion": null,
    "categoria": "FILIAL",
    "latitud": 40.4600,
    "longitud": -3.4600,
    "web": null
  },
  {
    "nombre": "Hermandad de Salteras",
    "numeroOrden": 116,
    "provincia": "Sevilla",
    "localidad": "Salteras",
    "madrina": null,
    "anioFundacion": null,
    "categoria": "FILIAL",
    "latitud": 37.4584,
    "longitud": -6.1308,
    "web": null
  },
  {
    "nombre": "Hermandad de Valencina de la Concepción",
    "numeroOrden": 117,
    "provincia": "Sevilla",
    "localidad": "Valencina de la Concepción",
    "madrina": null,
    "anioFundacion": null,
    "categoria": "FILIAL",
    "latitud": 37.4249,
    "longitud": -6.0794,
    "web": null
  },
  {
    "nombre": "Hermandad de Cartaya",
    "numeroOrden": 118,
    "provincia": "Huelva",
    "localidad": "Cartaya",
    "madrina": null,
    "anioFundacion": null,
    "categoria": "FILIAL",
    "latitud": 37.2773,
    "longitud": -7.1500,
    "web": null
  },
  {
    "nombre": "Hermandad de La Carolina",
    "numeroOrden": 119,
    "provincia": "Jaén",
    "localidad": "La Carolina",
    "madrina": null,
    "anioFundacion": null,
    "categoria": "FILIAL",
    "latitud": 38.2741,
    "longitud": -3.6125,
    "web": null
  },
  {
    "nombre": "Hermandad de San Sebastián de los Reyes",
    "numeroOrden": 120,
    "provincia": "Madrid",
    "localidad": "San Sebastián de los Reyes",
    "madrina": null,
    "anioFundacion": null,
    "categoria": "FILIAL",
    "latitud": 40.5489,
    "longitud": -3.6264,
    "web": null
  },
  {
    "nombre": "Hermandad de El Viso del Alcor",
    "numeroOrden": 121,
    "provincia": "Sevilla",
    "localidad": "El Viso del Alcor",
    "madrina": null,
    "anioFundacion": null,
    "categoria": "FILIAL",
    "latitud": 37.3956,
    "longitud": -5.7248,
    "web": null
  },
  {
    "nombre": "Hermandad de Baeza",
    "numeroOrden": 122,
    "provincia": "Jaén",
    "localidad": "Baeza",
    "madrina": null,
    "anioFundacion": null,
    "categoria": "FILIAL",
    "latitud": 37.9957,
    "longitud": -3.4694,
    "web": null
  },
  {
    "nombre": "Hermandad de Sabadell",
    "numeroOrden": 123,
    "provincia": "Barcelona",
    "localidad": "Sabadell",
    "madrina": null,
    "anioFundacion": null,
    "categoria": "FILIAL",
    "latitud": 41.5431,
    "longitud": 2.1090,
    "web": null
  },
  {
    "nombre": "Hermandad de Garrucha",
    "numeroOrden": 124,
    "provincia": "Almería",
    "localidad": "Garrucha",
    "madrina": null,
    "anioFundacion": null,
    "categoria": "FILIAL",
    "latitud": 37.1803,
    "longitud": -1.8224,
    "web": null
  }
]
