[
  {
    "nombre": "Hermandad Matriz de Almonte",
    "numeroOrden": 1,
    "provincia": "Huelva",
    "localidad": "Almonte",
    "madrina": null,
    "anioFundacion": 1758,
    "categoria": "FILIAL",
    "latitud": 37.2635,
    "longitud": -6.5115,
    "web": "https://www.hermandadmatriz.es"
  },
  {
    "nombre": "Hermandad de Almonte",
    "numeroOrden": 2,
    "provincia": "Huelva",
    "localidad": "Almonte",
    "madrina": null,
    "anioFundacion": 1813,
    "categoria": "FILIAL",
    "latitud": 37.2635,
    "longitud": -6.5115,
    "web": null
  },
  {
    "nombre": "Hermandad de Sanlúcar de Barrameda",
    "numeroOrden": 3,
    "provincia": "Cádiz",
    "localidad": "Sanlúcar de Barrameda",
    "madrina": "Almonte (Matriz)",
    "anioFundacion": 1.740,
    "categoria": "FILIAL",
    "latitud": 36.7784,
    "longitud": -6.3532,
    "web": null
  },
  {
    "nombre": "Hermandad de Huelva",
    "numeroOrden": 4,
    "provincia": "Huelva",
    "localidad": "Huelva",
    "madrina": "Almonte (Matriz)",
    "anioFundacion": 1861,
    "categoria": "FILIAL",
    "latitud": 37.2614,
    "longitud": -6.9447,
    "web": null
  },
  {
    "nombre": "Hermandad de Sevilla (La Macarena)",
    "numeroOrden": 5,
    "provincia": "Sevilla",
    "localidad": "Sevilla",
    "madrina": "Almonte (Matriz)",
    "anioFundacion": 1738,
    "categoria": "FILIAL",
    "latitud": 37.3987,
    "longitud": -5.9929,
    "web": null
  },
  {
    "nombre": "Hermandad de Triana",
    "numeroOrden": 6,
    "provincia": "Sevilla",
    "localidad": "Sevilla",
    "madrina": "Almonte (Matriz)",
    "anioFundacion": 1813,
    "categoria": "FILIAL",
    "latitud": 37.3826,
    "longitud": -6.0025,
    "web": null
  },
  {
    "nombre": "Hermandad de Cádiz",
    "numeroOrden": 7,
    "provincia": "Cádiz",
    "localidad": "Cádiz",
    "madrina": "Almonte (Matriz)",
    "anioFundacion": 1868,
    "categoria": "FILIAL",
    "latitud": 36.5298,
    "longitud": -6.2924,
    "web": null
  },
  {
    "nombre": "Hermandad de Moguer",
    "numeroOrden": 8,
    "provincia": "Huelva",
    "localidad": "Moguer",
    "madrina": "Almonte (Matriz)",
    "anioFundacion": 1880,
    "categoria": "FILIAL",
    "latitud": 37.2742,
    "longitud": -6.8381,
    "web": null
  },
  {
    "nombre": "Hermandad de Jerez de la Frontera",
    "numeroOrden": 9,
    "provincia": "Cádiz",
    "localidad": "Jerez de la Frontera",
    "madrina": "Almonte (Matriz)",
    "anioFundacion": 1850,
    "categoria": "FILIAL",
    "latitud": 36.6850,
    "longitud": -6.1261,
    "web": null
  },
  {
    "nombre": "Hermandad de Málaga",
    "numeroOrden": 10,
    "provincia": "Málaga",
    "localidad": "Málaga",
    "madrina": "Almonte (Matriz)",
    "anioFundacion": 1942,
    "categoria": "FILIAL",
    "latitud": 36.7213,
    "longitud": -4.4214,
    "web": null
  },
  {
    "nombre": "Hermandad de Córdoba",
    "numeroOrden": 11,
    "provincia": "Córdoba",
    "localidad": "Córdoba",
    "madrina": "Almonte (Matriz)",
    "anioFundacion": 1962,
    "categoria": "FILIAL",
    "latitud": 37.8882,
    "longitud": -4.7794,
    "web": null
  },
  {
    "nombre": "Hermandad de Granada",
    "numeroOrden": 12,
    "provincia": "Granada",
    "localidad": "Granada",
    "madrina": "Almonte (Matriz)",
    "anioFundacion": 1970,
    "categoria": "FILIAL",
    "latitud": 37.1773,
    "longitud": -3.5986,
    "web": null
  },
  {
    "nombre": "Hermandad de Madrid",
    "numeroOrden": 13,
    "provincia": "Madrid",
    "localidad": "Madrid",
    "madrina": "Almonte (Matriz)",
    "anioFundacion": 1974,
    "categoria": "FILIAL",
    "latitud": 40.4168,
    "longitud": -3.7038,
    "web": null
  },
  {
    "nombre": "Hermandad de Barcelona",
    "numeroOrden": 14,
    "provincia": "Barcelona",
    "localidad": "Barcelona",
    "madrina": "Almonte (Matriz)",
    "anioFundacion": 1982,
    "categoria": "FILIAL",
    "latitud": 41.3851,
    "longitud": 2.1734,
    "web": null
  },
  {
    "nombre": "Hermandad de Valencia",
    "numeroOrden": 15,
    "provincia": "Valencia",
    "localidad": "Valencia",
    "madrina": "Almonte (Matriz)",
    "anioFundacion": 1988,
    "categoria": "FILIAL",
    "latitud": 39.4699,
    "longitud": -0.3763,
    "web": null
  }
]
